route,seq,location,lat,lon,color
파나마 경유,1,부산,35.1796,129.0756,blue
파나마 경유,2,파나마운하_태평양,8.9139,-79.5733,blue
파나마 경유,3,파나마운하_대서양,9.3673,-79.917,blue
파나마 경유,4,뉴욕,40.6643,-74.0395,blue
남미 우회,1,부산,35.1796,129.0756,red
남미 우회,2,마젤란해협,-52.5719,-69.2175,red
남미 우회,3,뉴욕,40.6643,-74.0395,red
